Sent: b'$GPGGA,,,,,,0,00,99.99,,,,,,*48\r\n'
Sending GPS data to serial port: /dev/serial0
Starting WebSocket connection to AWS.
Sent: b'$GPGGA,,,,,,0,00,99.99,,,,,,*48\r\n'
Sent: b'$GPGGA,,,,,,0,00,99.99,,,,,,*48\r\n'
Sent: b'$GPGGA,,,,,,0,00,99.99,,,,,,*48\r\n'
Sent: b'$GPGGA,,,,,,0,00,99.99,,,,,,*48\r\n'
Sent: b'$GPGGA,,,,,,0,00,99.99,,,,,,*48\r\n'
Sent: b'$GPGGA,,,,,,0,00,99.99,,,,,,*48\r\n'
Sent: b'$GPGGA,,,,,,0,00,99.99,,,,,,*48\r\n'
Sent: b'$GPGGA,,,,,,0,00,99.99,,,,,,*48\r\n'
Sent: b'$GPGGA,,,,,,0,00,99.99,,,,,,*48\r\n'
Sent: b'$GPGGA,,,,,,0,00,99.99,,,,,,*48\r\n'
Sent: b'$GPGGA,,,,,,0,00,99.99,,,,,,*48\r\n'
Sent: b'$GPGGA,,,,,,0,00,99.99,,,,,,*48\r\n'
Sent: b'$GPGGA,,,,,,0,00,99.99,,,,,,*48\r\n'
Sent: b'$GPGGA,,,,,,0,00,99.99,,,,,,*48\r\n'
Sent: b'$GPGGA,,,,,,0,00,99.99,,,,,,*48\r\n'
Sent: b'$GPGGA,,,,,,0,00,99.99,,,,,,*48\r\n'
Sent: b'$GPGGA,,,,,,0,00,99.99,,,,,,*48\r\n'
Sent: b'$GPGGA,,,,,,0,00,99.99,,,,,,*48\r\n'
Sent: b'$GPGGA,,,,,,0,00,99.99,,,,,,*48\r\n'
Sent: b'$GPGGA,,,,,,0,00,99.99,,,,,,*48\r\n'
Sent: b'$GPGGA,,,,,,0,00,99.99,,,,,,*48\r\n'
Sent: b'$GPGGA,,,,,,0,00,99.99,,,,,,*48\r\n'
Sent: b'$GPGGA,,,,,,0,00,99.99,,,,,,*48\r\n'
Sent: b'$GPGGA,,,,,,0,00,99.99,,,,,,*48\r\n'
Sent: b'$GPGGA,,,,,,0,00,99.99,,,,,,*48\r\n'
Sent: b'$GPGGA,,,,,,0,00,99.99,,,,,,*48\r\n'
Sent: b'$GPGGA,,,,,,0,00,99.99,,,,,,*48\r\n'
Sent: b'$GPGGA,,,,,,0,00,99.99,,,,,,*48\r\n'
Sent: b'$GPGGA,,,,,,0,00,99.99,,,,,,*48\r\n'
Sent: b'$GPGGA,,,,,,0,00,99.99,,,,,,*48\r\n'
Sent: b'$GPGGA,,,,,,0,00,99.99,,,,,,*48\r\n'
Sent: b'$GPGGA,,,,,,0,00,99.99,,,,,,*48\r\n'
Sent: b'$GPGGA,,,,,,0,00,99.99,,,,,,*48\r\n'
Sent: b'$GPGGA,,,,,,0,00,99.99,,,,,,*48\r\n'
Sent: b'$GPGGA,,,,,,0,00,99.99,,,,,,*48\r\n'
Sent: b'$GPGGA,,,,,,0,00,99.99,,,,,,*48\r\n'
Sent: b'$GPGGA,,,,,,0,00,99.99,,,,,,*48\r\n'
Sent: b'$GPGGA,,,,,,0,00,99.99,,,,,,*48\r\n'
Sent: b'$GPGGA,,,,,,0,00,99.99,,,,,,*48\r\n'
Sent: b'$GPGGA,,,,,,0,00,99.99,,,,,,*48\r\n'
Sent: b'$GPGGA,,,,,,0,00,99.99,,,,,,*48\r\n'
Sent: b'$GPGGA,,,,,,0,00,99.99,,,,,,*48\r\n'
Sent: b'$GPGGA,,,,,,0,00,99.99,,,,,,*48\r\n'
Sent: b'$GPGGA,,,,,,0,00,99.99,,,,,,*48\r\n'
Sent: b'$GPGGA,,,,,,0,00,99.99,,,,,,*48\r\n'
Sent: b'$GPGGA,,,,,,0,00,99.99,,,,,,*48\r\n'
Sent: b'$GPGGA,,,,,,0,00,99.99,,,,,,*48\r\n'
Sent: b'$GPGGA,,,,,,0,00,99.99,,,,,,*48\r\n'
Sent: b'$GPGGA,,,,,,0,00,99.99,,,,,,*48\r\n'
Sent: b'$GPGGA,,,,,,0,00,99.99,,,,,,*48\r\n'
Sent: b'$GPGGA,,,,,,0,00,99.99,,,,,,*48\r\n'
Sent: b'$GPGGA,,,,,,0,00,99.99,,,,,,*48\r\n'
Sent: b'$GPGGA,,,,,,0,00,99.99,,,,,,*48\r\n'
Sent: b'$GPGGA,,,,,,0,00,99.99,,,,,,*48\r\n'
Sent: b'$GPGGA,,,,,,0,00,99.99,,,,,,*48\r\n'
Sent: b'$GPGGA,,,,,,0,00,99.99,,,,,,*48\r\n'
Sent: b'$GPGGA,,,,,,0,00,99.99,,,,,,*48\r\n'
Sent: b'$GPGGA,,,,,,0,00,99.99,,,,,,*48\r\n'
Sent: b'$GPGGA,,,,,,0,00,99.99,,,,,,*48\r\n'
Sent: b'$GPGGA,,,,,,0,00,99.99,,,,,,*48\r\n'
Sent: b'$GPGGA,,,,,,0,00,99.99,,,,,,*48\r\n'
Sent: b'$GPGGA,,,,,,0,00,99.99,,,,,,*48\r\n'
Sent: b'$GPGGA,,,,,,0,00,99.99,,,,,,*48\r\n'
Sent: b'$GPGGA,,,,,,0,00,99.99,,,,,,*48\r\n'
Sent: b'$GPGGA,,,,,,0,00,99.99,,,,,,*48\r\n'
Sent: b'$GPGGA,,,,,,0,00,99.99,,,,,,*48\r\n'
Sent: b'$GPGGA,,,,,,0,00,99.99,,,,,,*48\r\n'
Sent: b'$GPGGA,,,,,,0,00,99.99,,,,,,*48\r\n'
Sent: b'$GPGGA,,,,,,0,00,99.99,,,,,,*48\r\n'
Sent: b'$GPGGA,,,,,,0,00,99.99,,,,,,*48\r\n'
Sent: b'$GPGGA,,,,,,0,00,99.99,,,,,,*48\r\n'
Sent: b'$GPGGA,,,,,,0,00,99.99,,,,,,*48\r\n'
Sent: b'$GPGGA,,,,,,0,00,99.99,,,,,,*48\r\n'
Sent: b'$GPGGA,,,,,,0,00,99.99,,,,,,*48\r\n'
Sent: b'$GPGGA,,,,,,0,00,99.99,,,,,,*48\r\n'
Sent: b'$GPGGA,,,,,,0,00,99.99,,,,,,*48\r\n'
Sent: b'$GPGGA,,,,,,0,00,99.99,,,,,,*48\r\n'
Sent: b'$GPGGA,,,,,,0,00,99.99,,,,,,*48\r\n'
Sent: b'$GPGGA,,,,,,0,00,99.99,,,,,,*48\r\n'
Sent: b'$GPGGA,,,,,,0,00,99.99,,,,,,*48\r\n'
Sent: b'$GPGGA,,,,,,0,00,99.99,,,,,,*48\r\n'
Sent: b'$GPGGA,,,,,,0,00,99.99,,,,,,*48\r\n'
Sent: b'$GPGGA,,,,,,0,00,99.99,,,,,,*48\r\n'
Sent: b'$GPGGA,,,,,,0,00,99.99,,,,,,*48\r\n'
Sent: b'$GPGGA,,,,,,0,00,99.99,,,,,,*48\r\n'
Sent: b'$GPGGA,,,,,,0,00,99.99,,,,,,*48\r\n'
Sent: b'$GPGGA,,,,,,0,00,99.99,,,,,,*48\r\n'
Sent: b'$GPGGA,,,,,,0,00,99.99,,,,,,*48\r\n'
Sent: b'$GPGGA,,,,,,0,00,99.99,,,,,,*48\r\n'
Sent: b'$GPGGA,,,,,,0,00,99.99,,,,,,*48\r\n'
Sent: b'$GPGGA,,,,,,0,00,99.99,,,,,,*48\r\n'
Sent: b'$GPGGA,,,,,,0,00,99.99,,,,,,*48\r\n'
Sent: b'$GPGGA,,,,,,0,00,99.99,,,,,,*48\r\n'
Sent: b'$GPGGA,,,,,,0,00,99.99,,,,,,*48\r\n'
Sent: b'$GPGGA,,,,,,0,00,99.99,,,,,,*48\r\n'
Sent: b'$GPGGA,,,,,,0,00,99.99,,,,,,*48\r\n'
Sent: b'$GPGGA,,,,,,0,00,99.99,,,,,,*48\r\n'
Sent: b'$GPGGA,,,,,,0,00,99.99,,,,,,*48\r\n'
Sent: b'$GPGGA,,,,,,0,00,99.99,,,,,,*48\r\n'
Sent: b'$GPGGA,,,,,,0,00,99.99,,,,,,*48\r\n'
Sent: b'$GPGGA,,,,,,0,00,99.99,,,,,,*48\r\n'
Sent: b'$GPGGA,,,,,,0,00,99.99,,,,,,*48\r\n'
Sent: b'$GPGGA,,,,,,0,00,99.99,,,,,,*48\r\n'
Sent: b'$GPGGA,,,,,,0,00,99.99,,,,,,*48\r\n'
Sent: b'$GPGGA,,,,,,0,00,99.99,,,,,,*48\r\n'
Sent: b'$GPGGA,,,,,,0,00,99.99,,,,,,*48\r\n'
Sent: b'$GPGGA,,,,,,0,00,99.99,,,,,,*48\r\n'
Sent: b'$GPGGA,,,,,,0,00,99.99,,,,,,*48\r\n'
Sent: b'$GPGGA,,,,,,0,00,99.99,,,,,,*48\r\n'
Sent: b'$GPGGA,,,,,,0,00,99.99,,,,,,*48\r\n'
Sent: b'$GPGGA,,,,,,0,00,99.99,,,,,,*48\r\n'
Sent: b'$GPGGA,,,,,,0,00,99.99,,,,,,*48\r\n'
Sent: b'$GPGGA,,,,,,0,00,99.99,,,,,,*48\r\n'
Sent: b'$GPGGA,,,,,,0,00,99.99,,,,,,*48\r\n'
Sent: b'$GPGGA,,,,,,0,00,99.99,,,,,,*48\r\n'
Sent: b'$GPGGA,,,,,,0,00,99.99,,,,,,*48\r\n'
Sent: b'$GPGGA,,,,,,0,00,99.99,,,,,,*48\r\n'
Sent: b'$GPGGA,,,,,,0,00,99.99,,,,,,*48\r\n'
Sent: b'$GPGGA,,,,,,0,00,99.99,,,,,,*48\r\n'
Sent: b'$GPGGA,,,,,,0,00,99.99,,,,,,*48\r\n'
Sent: b'$GPGGA,,,,,,0,00,99.99,,,,,,*48\r\n'
Sent: b'$GPGGA,,,,,,0,00,99.99,,,,,,*48\r\n'
Sent: b'$GPGGA,,,,,,0,00,99.99,,,,,,*48\r\n'
Sent: b'$GPGGA,,,,,,0,00,99.99,,,,,,*48\r\n'
Sent: b'$GPGGA,,,,,,0,00,99.99,,,,,,*48\r\n'
Sent: b'$GPGGA,,,,,,0,00,99.99,,,,,,*48\r\n'
Sent: b'$GPGGA,,,,,,0,00,99.99,,,,,,*48\r\n'
Sent: b'$GPGGA,,,,,,0,00,99.99,,,,,,*48\r\n'
Sent: b'$GPGGA,,,,,,0,00,99.99,,,,,,*48\r\n'
Sent: b'$GPGGA,,,,,,0,00,99.99,,,,,,*48\r\n'
Sent: b'$GPGGA,,,,,,0,00,99.99,,,,,,*48\r\n'
Sent: b'$GPGGA,,,,,,0,00,99.99,,,,,,*48\r\n'
Sent: b'$GPGGA,,,,,,0,00,99.99,,,,,,*48\r\n'
Sent: b'$GPGGA,,,,,,0,00,99.99,,,,,,*48\r\n'
Sent: b'$GPGGA,,,,,,0,00,99.99,,,,,,*48\r\n'
Sent: b'$GPGGA,,,,,,0,00,99.99,,,,,,*48\r\n'
Sent: b'$GPGGA,,,,,,0,00,99.99,,,,,,*48\r\n'
Sent: b'$GPGGA,181411.637,3347.0602,N,08424.1355,W,1,15,1.5,255.0,M,0.0,M,,*7D\r\n'
Sent: b'$GPGGA,181412.138,3347.0600,N,08424.1354,W,1,15,1.5,254.2,M,0.0,M,,*76\r\n'
Sent: b'$GPGGA,181412.639,3347.0600,N,08424.1354,W,1,15,1.5,254.2,M,0.0,M,,*70\r\n'
Sent: b'$GPGGA,181413.140,3347.0600,N,08424.1354,W,1,15,1.5,254.2,M,0.0,M,,*78\r\n'
Sent: b'$GPGGA,181413.641,3347.0600,N,08424.1354,W,1,15,1.5,254.2,M,0.0,M,,*7E\r\n'
Sent: b'$GPGGA,181414.142,3347.0600,N,08424.1354,W,1,15,1.5,254.2,M,0.0,M,,*7D\r\n'
Sent: b'$GPGGA,181414.643,3347.0600,N,08424.1354,W,1,15,1.5,254.2,M,0.0,M,,*7B\r\n'
Sent: b'$GPGGA,181415.144,3347.0600,N,08424.1354,W,1,15,1.5,254.2,M,0.0,M,,*7A\r\n'
Sent: b'$GPGGA,181415.645,3347.0600,N,08424.1354,W,1,15,1.5,254.2,M,0.0,M,,*7C\r\n'
Sent: b'$GPGGA,181416.145,3347.0600,N,08424.1354,W,1,15,1.5,254.2,M,0.0,M,,*78\r\n'
Sent: b'$GPGGA,181416.646,3347.0600,N,08424.1354,W,1,15,1.5,254.2,M,0.0,M,,*7C\r\n'
Sent: b'$GPGGA,181417.147,3347.0600,N,08424.1354,W,1,15,1.5,254.2,M,0.0,M,,*7B\r\n'
Sent: b'$GPGGA,181417.648,3347.0600,N,08424.1354,W,1,15,1.5,254.2,M,0.0,M,,*73\r\n'
Sent: b'$GPGGA,181418.149,3347.0600,N,08424.1354,W,1,15,1.5,254.2,M,0.0,M,,*7A\r\n'
Sent: b'$GPGGA,181418.650,3347.0600,N,08424.1354,W,1,15,1.5,254.2,M,0.0,M,,*75\r\n'
Sent: b'$GPGGA,181419.151,3347.0600,N,08424.1354,W,1,15,1.5,254.2,M,0.0,M,,*72\r\n'
Sent: b'$GPGGA,181419.652,3347.0600,N,08424.1354,W,1,15,1.5,254.2,M,0.0,M,,*76\r\n'
Sent: b'$GPGGA,181420.153,3347.0600,N,08424.1354,W,1,15,1.5,254.2,M,0.0,M,,*7A\r\n'
Sent: b'$GPGGA,181420.654,3347.0605,N,08424.1359,W,1,15,1.5,255.0,M,0.0,M,,*71\r\n'
Sent: b'$GPGGA,181421.155,3347.0605,N,08424.1359,W,1,15,1.5,255.0,M,0.0,M,,*76\r\n'
Sent: b'$GPGGA,181421.656,3347.0605,N,08424.1359,W,1,15,1.5,255.0,M,0.0,M,,*72\r\n'
Sent: b'$GPGGA,181422.157,3347.0605,N,08424.1359,W,1,15,1.5,255.0,M,0.0,M,,*77\r\n'
Sent: b'$GPGGA,181422.658,3347.0605,N,08424.1359,W,1,15,1.5,255.0,M,0.0,M,,*7F\r\n'
Sent: b'$GPGGA,181423.159,3347.0605,N,08424.1359,W,1,15,1.5,255.0,M,0.0,M,,*78\r\n'
Sent: b'$GPGGA,181423.660,3347.0605,N,08424.1359,W,1,15,1.5,255.0,M,0.0,M,,*75\r\n'
Sent: b'$GPGGA,181424.161,3347.0605,N,08424.1359,W,1,15,1.5,255.0,M,0.0,M,,*74\r\n'
Sent: b'$GPGGA,181424.662,3347.0605,N,08424.1359,W,1,15,1.5,255.0,M,0.0,M,,*70\r\n'
Sent: b'$GPGGA,181425.163,3347.0605,N,08424.1359,W,1,15,1.5,255.0,M,0.0,M,,*77\r\n'
Sent: b'$GPGGA,181425.664,3347.0605,N,08424.1359,W,1,15,1.5,255.0,M,0.0,M,,*77\r\n'
Sent: b'$GPGGA,181426.165,3347.0605,N,08424.1359,W,1,15,1.5,255.0,M,0.0,M,,*72\r\n'
Sent: b'$GPGGA,181426.666,3347.0605,N,08424.1359,W,1,15,1.5,255.0,M,0.0,M,,*76\r\n'
Sent: b'$GPGGA,181427.167,3347.0605,N,08424.1359,W,1,15,1.5,255.0,M,0.0,M,,*71\r\n'
Sent: b'$GPGGA,181427.668,3347.0605,N,08424.1359,W,1,15,1.5,255.0,M,0.0,M,,*79\r\n'
Sent: b'$GPGGA,181428.169,3347.0605,N,08424.1359,W,1,15,1.5,255.0,M,0.0,M,,*70\r\n'
Sent: b'$GPGGA,181428.670,3347.0605,N,08424.1359,W,1,15,1.5,255.0,M,0.0,M,,*7F\r\n'
Sent: b'$GPGGA,181429.171,3347.0605,N,08424.1359,W,1,15,1.5,255.0,M,0.0,M,,*78\r\n'
Sent: b'$GPGGA,181429.672,3347.0605,N,08424.1359,W,1,15,1.5,255.0,M,0.0,M,,*7C\r\n'
Sent: b'$GPGGA,181430.173,3347.0605,N,08424.1359,W,1,15,1.5,255.0,M,0.0,M,,*72\r\n'
Sent: b'$GPGGA,181430.674,3347.0605,N,08424.1359,W,1,15,1.5,255.0,M,0.0,M,,*72\r\n'
Sent: b'$GPGGA,181431.175,3347.0605,N,08424.1359,W,1,15,1.5,255.0,M,0.0,M,,*75\r\n'
Sent: b'$GPGGA,181431.676,3347.0605,N,08424.1359,W,1,15,1.5,255.0,M,0.0,M,,*71\r\n'
Sent: b'$GPGGA,181432.177,3347.0605,N,08424.1359,W,1,15,1.5,255.0,M,0.0,M,,*74\r\n'
Sent: b'$GPGGA,181432.678,3347.0605,N,08424.1359,W,1,15,1.5,255.0,M,0.0,M,,*7C\r\n'
Sent: b'$GPGGA,181433.179,3347.0605,N,08424.1359,W,1,15,1.5,255.0,M,0.0,M,,*7B\r\n'
Sent: b'$GPGGA,181433.679,3347.0605,N,08424.1359,W,1,15,1.5,255.0,M,0.0,M,,*7C\r\n'
Sent: b'$GPGGA,181434.180,3347.0605,N,08424.1359,W,1,15,1.5,255.0,M,0.0,M,,*7A\r\n'
Sent: b'$GPGGA,181434.681,3347.0605,N,08424.1359,W,1,15,1.5,255.0,M,0.0,M,,*7C\r\n'
Sent: b'$GPGGA,181435.182,3347.0605,N,08424.1359,W,1,15,1.5,255.0,M,0.0,M,,*79\r\n'
Sent: b'$GPGGA,181435.683,3347.0605,N,08424.1359,W,1,15,1.5,255.0,M,0.0,M,,*7F\r\n'
Sent: b'$GPGGA,181436.184,3347.0605,N,08424.1359,W,1,15,1.5,255.0,M,0.0,M,,*7C\r\n'
Sent: b'$GPGGA,181436.685,3347.0605,N,08424.1359,W,1,15,1.5,255.0,M,0.0,M,,*7A\r\n'
Sent: b'$GPGGA,181437.186,3347.0605,N,08424.1359,W,1,15,1.5,255.0,M,0.0,M,,*7F\r\n'
Sent: b'$GPGGA,181437.687,3347.0605,N,08424.1359,W,1,15,1.5,255.0,M,0.0,M,,*79\r\n'
Sent: b'$GPGGA,181438.188,3347.0605,N,08424.1359,W,1,15,1.5,255.0,M,0.0,M,,*7E\r\n'
Sent: b'$GPGGA,181438.689,3347.0605,N,08424.1359,W,1,15,1.5,255.0,M,0.0,M,,*78\r\n'
Sent: b'$GPGGA,181439.190,3347.0605,N,08424.1359,W,1,15,1.5,255.0,M,0.0,M,,*76\r\n'
Sent: b'$GPGGA,181439.691,3347.0605,N,08424.1359,W,1,15,1.5,255.0,M,0.0,M,,*70\r\n'
Sent: b'$GPGGA,181440.192,3347.0605,N,08424.1359,W,1,15,1.5,255.0,M,0.0,M,,*7A\r\n'
Sent: b'$GPGGA,181440.693,3347.0605,N,08424.1359,W,1,15,1.5,255.0,M,0.0,M,,*7C\r\n'
Sent: b'$GPGGA,181441.194,3347.0605,N,08424.1359,W,1,15,1.5,255.0,M,0.0,M,,*7D\r\n'
Sent: b'$GPGGA,181441.695,3347.0605,N,08424.1359,W,1,15,1.5,255.0,M,0.0,M,,*7B\r\n'
Sent: b'$GPGGA,181442.196,3347.0605,N,08424.1359,W,1,15,1.5,255.0,M,0.0,M,,*7C\r\n'
Sent: b'$GPGGA,181442.697,3347.0605,N,08424.1359,W,1,15,1.5,255.0,M,0.0,M,,*7A\r\n'
Sent: b'$GPGGA,181443.198,3347.0605,N,08424.1359,W,1,15,1.5,255.0,M,0.0,M,,*73\r\n'
Sent: b'$GPGGA,181443.699,3347.0605,N,08424.1359,W,1,15,1.5,255.0,M,0.0,M,,*75\r\n'
Sent: b'$GPGGA,181444.199,3347.0605,N,08424.1359,W,1,15,1.5,255.0,M,0.0,M,,*75\r\n'
Sent: b'$GPGGA,181444.700,3347.0605,N,08424.1359,W,1,15,1.5,255.0,M,0.0,M,,*73\r\n'
Sent: b'$GPGGA,181445.201,3347.0605,N,08424.1359,W,1,15,1.5,255.0,M,0.0,M,,*76\r\n'
Sent: b'$GPGGA,181445.702,3347.0605,N,08424.1359,W,1,15,1.5,255.0,M,0.0,M,,*70\r\n'
Sent: b'$GPGGA,181446.203,3347.0605,N,08424.1359,W,1,15,1.5,255.0,M,0.0,M,,*77\r\n'
Sent: b'$GPGGA,181446.704,3347.0605,N,08424.1359,W,1,15,1.5,255.0,M,0.0,M,,*75\r\n'
Sent: b'$GPGGA,181447.205,3347